{"schema": {"fields":[{"name":"index","type":"integer"},{"name":"NAME ","type":"string"},{"name":"HOURS OF OPERATION","type":"string"},{"name":"CYBERNAVIGATOR","type":"string"},{"name":"TEACHER IN THE LIBRARY","type":"string"},{"name":"ADDRESS","type":"string"},{"name":"CITY","type":"string"},{"name":"STATE","type":"string"},{"name":"ZIP","type":"integer"},{"name":"PHONE","type":"string"},{"name":"WEBSITE","type":"string"},{"name":"LOCATION","type":"string"},{"name":"Predicted_Month","type":"number"},{"name":"Predicted_Day","type":"number"},{"name":"Predicted_Year","type":"number"},{"name":"Predicted_Hour","type":"number"},{"name":"Predicted_Minute","type":"number"},{"name":"Predicted_Second","type":"number"},{"name":"Predicted_X","type":"number"},{"name":"Predicted_Y","type":"number"}],"primaryKey":["index"],"pandas_version":"0.20.0"}, "data": [{"index":0,"NAME ":"Albany Park","HOURS OF OPERATION":"M, W: 10AM-6PM;  TU, TH: 12PM-8PM; F, SA: 9AM-5PM; SU: Closed","CYBERNAVIGATOR":"Yes","TEACHER IN THE LIBRARY":"Yes ","ADDRESS":"3401 W. Foster Avenue","CITY":"CHICAGO","STATE":"IL","ZIP":60625,"PHONE":"(773) 539-5450","WEBSITE":"https:\/\/www.chipublib.org\/locations\/3\/","LOCATION":"(41.975456, -87.71409)","Predicted_Month":null,"Predicted_Day":null,"Predicted_Year":null,"Predicted_Hour":null,"Predicted_Minute":null,"Predicted_Second":null,"Predicted_X":41.9719367,"Predicted_Y":-87.7161739},{"index":1,"NAME ":"Altgeld","HOURS OF OPERATION":"M, W: 12PM-8PM; TU, TH: 10AM-6PM; F, SA: 9AM-5PM; SU: Closed","CYBERNAVIGATOR":"Yes","TEACHER IN THE LIBRARY":"Yes ","ADDRESS":"13281 S. Corliss Avenue","CITY":"CHICAGO","STATE":"IL","ZIP":60827,"PHONE":"(312) 747-3270","WEBSITE":"https:\/\/www.chipublib.org\/locations\/4\/","LOCATION":"(41.65473021837776, -87.6022302609835)","Predicted_Month":null,"Predicted_Day":null,"Predicted_Year":null,"Predicted_Hour":null,"Predicted_Minute":null,"Predicted_Second":null,"Predicted_X":41.655496,"Predicted_Y":-87.5974498999},{"index":2,"NAME ":"Archer Heights","HOURS OF OPERATION":"M, W: 12PM-8PM; TU, TH: 10AM-6PM; F, SA: 9AM-5PM; SU: Closed","CYBERNAVIGATOR":"No","TEACHER IN THE LIBRARY":"Yes ","ADDRESS":"5055 S. Archer Avenue","CITY":"CHICAGO","STATE":"IL","ZIP":60632,"PHONE":"(312) 747-9241","WEBSITE":"https:\/\/www.chipublib.org\/locations\/5\/","LOCATION":"(41.8012136599335, -87.72649071431441)","Predicted_Month":null,"Predicted_Day":null,"Predicted_Year":null,"Predicted_Hour":null,"Predicted_Minute":null,"Predicted_Second":null,"Predicted_X":41.8114215,"Predicted_Y":-87.7261651},{"index":3,"NAME ":"Austin","HOURS OF OPERATION":"M, W: 12PM-8PM; TU, TH: 10AM-6PM; F, SA: 9AM-5PM; SU: Closed","CYBERNAVIGATOR":"Yes","TEACHER IN THE LIBRARY":"Yes ","ADDRESS":"5615 W. Race Avenue","CITY":"CHICAGO","STATE":"IL","ZIP":60644,"PHONE":"(312) 746-5038","WEBSITE":"https:\/\/www.chipublib.org\/locations\/6\/","LOCATION":"(41.889272153514526, -87.76571186722818)","Predicted_Month":null,"Predicted_Day":null,"Predicted_Year":null,"Predicted_Hour":null,"Predicted_Minute":null,"Predicted_Second":null,"Predicted_X":41.8878759,"Predicted_Y":-87.7648508},{"index":4,"NAME ":"Austin-Irving","HOURS OF OPERATION":"M, W: 12PM-8PM; TU, TH: 10AM-6PM; F, SA: 9AM-5PM; SU: Closed","CYBERNAVIGATOR":"No","TEACHER IN THE LIBRARY":"Yes ","ADDRESS":"6100 W. Irving Park Road","CITY":"CHICAGO","STATE":"IL","ZIP":60634,"PHONE":"(312) 744-6222","WEBSITE":"https:\/\/www.chipublib.org\/locations\/7\/","LOCATION":"(41.95317390064158, -87.77938682073541)","Predicted_Month":null,"Predicted_Day":null,"Predicted_Year":null,"Predicted_Hour":null,"Predicted_Minute":null,"Predicted_Second":null,"Predicted_X":41.953181,"Predicted_Y":-87.776538},{"index":5,"NAME ":"Avalon","HOURS OF OPERATION":"M, W: 12PM-8PM; TU, TH: 10AM-6PM; F, SA: 9AM-5PM; SU: Closed","CYBERNAVIGATOR":"Yes","TEACHER IN THE LIBRARY":"Yes ","ADDRESS":"8148 S. Stony Island Avenue ","CITY":"CHICAGO","STATE":"IL","ZIP":60617,"PHONE":"(312) 747-5234","WEBSITE":"https:\/\/www.chipublib.org\/locations\/8\/","LOCATION":"(41.74671722160199, -87.58539658719002)","Predicted_Month":null,"Predicted_Day":null,"Predicted_Year":null,"Predicted_Hour":null,"Predicted_Minute":null,"Predicted_Second":null,"Predicted_X":41.7450346,"Predicted_Y":-87.5886584},{"index":6,"NAME ":"Back of the Yards","HOURS OF OPERATION":"M, W: 10AM-6PM;  TU, TH: 12PM-8PM; F, SA: 9AM-5PM; SU: Closed","CYBERNAVIGATOR":"No","TEACHER IN THE LIBRARY":"Yes ","ADDRESS":"2111 W. 47th Street","CITY":"CHICAGO","STATE":"IL","ZIP":60609,"PHONE":"(312) 747-9595","WEBSITE":"https:\/\/www.chipublib.org\/locations\/9\/","LOCATION":"(41.808384423666354, -87.67756963874196)","Predicted_Month":null,"Predicted_Day":null,"Predicted_Year":null,"Predicted_Hour":null,"Predicted_Minute":null,"Predicted_Second":null,"Predicted_X":41.8075332,"Predicted_Y":-87.6661628},{"index":7,"NAME ":"Beverly","HOURS OF OPERATION":"M, W: 12PM-8PM; TU, TH: 10AM-6PM; F, SA: 9AM-5PM; SU: Closed","CYBERNAVIGATOR":"No","TEACHER IN THE LIBRARY":"Yes ","ADDRESS":"1962 W. 95th Street","CITY":"CHICAGO","STATE":"IL","ZIP":60643,"PHONE":"(312) 747-9673","WEBSITE":"https:\/\/www.chipublib.org\/locations\/10\/","LOCATION":"(41.721180505456495, -87.6719464613888)","Predicted_Month":null,"Predicted_Day":null,"Predicted_Year":null,"Predicted_Hour":null,"Predicted_Minute":null,"Predicted_Second":null,"Predicted_X":41.7181532,"Predicted_Y":-87.6717674},{"index":8,"NAME ":"Bezazian","HOURS OF OPERATION":"M, W: 12PM-8PM; TU, TH: 10AM-6PM; F, SA: 9AM-5PM; SU: Closed","CYBERNAVIGATOR":"No","TEACHER IN THE LIBRARY":"Yes ","ADDRESS":"1226 W. Ainslie Street","CITY":"CHICAGO","STATE":"IL","ZIP":60640,"PHONE":"(312) 744-0019","WEBSITE":"https:\/\/www.chipublib.org\/locations\/11\/","LOCATION":"(41.97168194800458, -87.66073027218957)","Predicted_Month":null,"Predicted_Day":null,"Predicted_Year":null,"Predicted_Hour":null,"Predicted_Minute":null,"Predicted_Second":null,"Predicted_X":41.971649,"Predicted_Y":-87.6607453255},{"index":9,"NAME ":"Blackstone","HOURS OF OPERATION":"M, W: 12PM-8PM; TU, TH: 10AM-6PM; F, SA: 9AM-5PM; SU: Closed","CYBERNAVIGATOR":"Yes","TEACHER IN THE LIBRARY":"Yes ","ADDRESS":"4904 S. Lake Park Avenue","CITY":"CHICAGO","STATE":"IL","ZIP":60615,"PHONE":"(312) 747-0511","WEBSITE":"https:\/\/www.chipublib.org\/locations\/12\/","LOCATION":"(41.8058403098503, -87.58934182212592)","Predicted_Month":null,"Predicted_Day":null,"Predicted_Year":null,"Predicted_Hour":null,"Predicted_Minute":null,"Predicted_Second":null,"Predicted_X":41.8732987,"Predicted_Y":-87.6247903253},{"index":10,"NAME ":"Brainerd","HOURS OF OPERATION":"M, W: 10AM-6PM;  TU, TH: 12PM-8PM; F, SA: 9AM-5PM; SU: Closed","CYBERNAVIGATOR":"Yes","TEACHER IN THE LIBRARY":"Yes ","ADDRESS":"1350 W. 89th Street","CITY":"CHICAGO","STATE":"IL","ZIP":60620,"PHONE":"(312) 747-6291","WEBSITE":"https:\/\/www.chipublib.org\/locations\/13\/","LOCATION":"(41.732316757097045, -87.65723451581835)","Predicted_Month":null,"Predicted_Day":null,"Predicted_Year":null,"Predicted_Hour":null,"Predicted_Minute":null,"Predicted_Second":null,"Predicted_X":41.7328116,"Predicted_Y":-87.6583828},{"index":11,"NAME ":"Brighton Park","HOURS OF OPERATION":"M, W: 10AM-6PM;  TU, TH: 12PM-8PM; F, SA: 9AM-5PM; SU: Closed","CYBERNAVIGATOR":"Yes","TEACHER IN THE LIBRARY":"Yes ","ADDRESS":"4314 S. Archer Avenue","CITY":"CHICAGO","STATE":"IL","ZIP":60632,"PHONE":"(312) 747-0666","WEBSITE":"https:\/\/www.chipublib.org\/locations\/14\/","LOCATION":"(41.815138789328266, -87.70265431614907)","Predicted_Month":null,"Predicted_Day":null,"Predicted_Year":null,"Predicted_Hour":null,"Predicted_Minute":null,"Predicted_Second":null,"Predicted_X":41.8189217,"Predicted_Y":-87.6989421},{"index":12,"NAME ":"Bucktown-Wicker Park","HOURS OF OPERATION":"M, W: 12PM-8PM; TU, TH: 10AM-6PM; F, SA: 9AM-5PM; SU: Closed","CYBERNAVIGATOR":"No","TEACHER IN THE LIBRARY":"Yes ","ADDRESS":"1701 N. Milwaukee Avenue","CITY":"CHICAGO","STATE":"IL","ZIP":60647,"PHONE":"(312) 744-6022","WEBSITE":"https:\/\/www.chipublib.org\/locations\/15\/","LOCATION":"(41.91272239576367, -87.6805873025965)","Predicted_Month":null,"Predicted_Day":null,"Predicted_Year":null,"Predicted_Hour":null,"Predicted_Minute":null,"Predicted_Second":null,"Predicted_X":41.9124994,"Predicted_Y":-87.6724672},{"index":13,"NAME ":"Budlong Woods","HOURS OF OPERATION":"M, W: 12PM-8PM; TU, TH: 10AM-6PM; F, SA: 9AM-5PM; SU: Closed","CYBERNAVIGATOR":"No","TEACHER IN THE LIBRARY":"Yes ","ADDRESS":"5630 N. Lincoln Avenue","CITY":"CHICAGO","STATE":"IL","ZIP":60659,"PHONE":"(312) 742-9590","WEBSITE":"https:\/\/www.chipublib.org\/locations\/16\/","LOCATION":"(41.98457226437275, -87.69773449236712)","Predicted_Month":null,"Predicted_Day":null,"Predicted_Year":null,"Predicted_Hour":null,"Predicted_Minute":null,"Predicted_Second":null,"Predicted_X":41.98336825,"Predicted_Y":-87.6963394467},{"index":14,"NAME ":"Canaryville","HOURS OF OPERATION":"M, W: 12PM-8PM; TU, TH: 10AM-6PM; F, SA: 9AM-5PM; SU: Closed","CYBERNAVIGATOR":"Yes","TEACHER IN THE LIBRARY":"Yes ","ADDRESS":"642 W. 43rd Street","CITY":"CHICAGO","STATE":"IL","ZIP":60609,"PHONE":"(312) 747-0644","WEBSITE":"https:\/\/www.chipublib.org\/locations\/17\/","LOCATION":"(41.815505684396335, -87.64250101465565)","Predicted_Month":null,"Predicted_Day":null,"Predicted_Year":null,"Predicted_Hour":null,"Predicted_Minute":null,"Predicted_Second":null,"Predicted_X":41.8147556,"Predicted_Y":-87.6403288},{"index":15,"NAME ":"Chicago Bee","HOURS OF OPERATION":"M, W: 12PM-8PM; TU, TH: 10AM-6PM; F, SA: 9AM-5PM; SU: Closed","CYBERNAVIGATOR":"Yes","TEACHER IN THE LIBRARY":"Yes ","ADDRESS":"3647 S. State Street","CITY":"CHICAGO","STATE":"IL","ZIP":60609,"PHONE":"(312) 747-6872","WEBSITE":"https:\/\/www.chipublib.org\/locations\/18\/","LOCATION":"(41.8284268698988, -87.62640221644719)","Predicted_Month":null,"Predicted_Day":null,"Predicted_Year":null,"Predicted_Hour":null,"Predicted_Minute":null,"Predicted_Second":null,"Predicted_X":41.82800815,"Predicted_Y":-87.6260816496},{"index":16,"NAME ":"Chicago Lawn","HOURS OF OPERATION":"M, W: 10AM-6PM;  TU, TH: 12PM-8PM; F, SA: 9AM-5PM; SU: Closed","CYBERNAVIGATOR":"Yes","TEACHER IN THE LIBRARY":"Yes ","ADDRESS":"6120 S. Kedzie Avenue ","CITY":"CHICAGO","STATE":"IL","ZIP":60629,"PHONE":"(312) 747-0639","WEBSITE":"https:\/\/www.chipublib.org\/locations\/19\/","LOCATION":"(41.78180787787282, -87.70326162211758)","Predicted_Month":null,"Predicted_Day":null,"Predicted_Year":null,"Predicted_Hour":null,"Predicted_Minute":null,"Predicted_Second":null,"Predicted_X":41.7750332,"Predicted_Y":-87.6964408},{"index":17,"NAME ":"Chinatown","HOURS OF OPERATION":"M, W: 12PM-8PM; TU, TH: 10AM-6PM; F, SA: 9AM-5PM; SU: Closed","CYBERNAVIGATOR":"Yes","TEACHER IN THE LIBRARY":"Yes ","ADDRESS":"2100 S. Wentworth Avenue","CITY":"CHICAGO","STATE":"IL","ZIP":60616,"PHONE":"(312) 747-8013","WEBSITE":"https:\/\/www.chipublib.org\/locations\/20\/","LOCATION":"(41.85412074173438, -87.63195792246246)","Predicted_Month":null,"Predicted_Day":null,"Predicted_Year":null,"Predicted_Hour":null,"Predicted_Minute":null,"Predicted_Second":null,"Predicted_X":41.8516579,"Predicted_Y":-87.6331383},{"index":18,"NAME ":"Clearing","HOURS OF OPERATION":"M, W: 12PM-8PM; TU, TH: 10AM-6PM; F, SA: 9AM-5PM; SU: Closed","CYBERNAVIGATOR":"No","TEACHER IN THE LIBRARY":"Yes ","ADDRESS":"6423 W. 63rd Place","CITY":"CHICAGO","STATE":"IL","ZIP":60638,"PHONE":"(312) 747-5657","WEBSITE":"https:\/\/www.chipublib.org\/locations\/21\/","LOCATION":"(41.77678205621646, -87.78181978755116)","Predicted_Month":null,"Predicted_Day":null,"Predicted_Year":null,"Predicted_Hour":null,"Predicted_Minute":null,"Predicted_Second":null,"Predicted_X":41.780588,"Predicted_Y":-87.7733881},{"index":19,"NAME ":"Coleman","HOURS OF OPERATION":"M, W: 12PM-8PM; TU, TH: 10AM-6PM; F, SA: 9AM-5PM; SU: Closed","CYBERNAVIGATOR":"Yes","TEACHER IN THE LIBRARY":"Yes ","ADDRESS":"731 E. 63rd Street","CITY":"CHICAGO","STATE":"IL","ZIP":60637,"PHONE":"(312) 747-7760","WEBSITE":"https:\/\/www.chipublib.org\/locations\/22\/","LOCATION":"(41.78037301095412, -87.60715724280014)","Predicted_Month":null,"Predicted_Day":null,"Predicted_Year":null,"Predicted_Hour":null,"Predicted_Minute":null,"Predicted_Second":null,"Predicted_X":41.7964389,"Predicted_Y":-87.6035145245},{"index":20,"NAME ":"Daley, Richard J.-Bridgeport","HOURS OF OPERATION":"M, W: 10AM-6PM;  TU, TH: 12PM-8PM; F, SA: 9AM-5PM; SU: Closed","CYBERNAVIGATOR":"Yes","TEACHER IN THE LIBRARY":"Yes ","ADDRESS":"3400 S. Halsted Street","CITY":"CHICAGO","STATE":"IL","ZIP":60608,"PHONE":"(312) 747-8990","WEBSITE":"https:\/\/www.chipublib.org\/locations\/23\/","LOCATION":"(41.83228703346308, -87.64648501124545)","Predicted_Month":null,"Predicted_Day":null,"Predicted_Year":null,"Predicted_Hour":null,"Predicted_Minute":null,"Predicted_Second":null,"Predicted_X":41.6965804,"Predicted_Y":-87.6424453},{"index":21,"NAME ":"Daley, Richard M.-W Humboldt","HOURS OF OPERATION":"M, W: 10AM-6PM;  TU, TH: 12PM-8PM; F, SA: 9AM-5PM; SU: Closed","CYBERNAVIGATOR":"Yes","TEACHER IN THE LIBRARY":"Yes ","ADDRESS":"733 N. Kedzie Avenue","CITY":"CHICAGO","STATE":"IL","ZIP":60612,"PHONE":"(312) 743-0555","WEBSITE":"https:\/\/www.chipublib.org\/locations\/24\/","LOCATION":"(41.8943707, -87.7064607)","Predicted_Month":null,"Predicted_Day":null,"Predicted_Year":null,"Predicted_Hour":null,"Predicted_Minute":null,"Predicted_Second":null,"Predicted_X":32.5832806845,"Predicted_Y":-117.0436198541},{"index":22,"NAME ":"Douglass","HOURS OF OPERATION":"M, W: 10AM-6PM;  TU, TH: 12PM-8PM; F, SA: 9AM-5PM; SU: Closed","CYBERNAVIGATOR":"Yes","TEACHER IN THE LIBRARY":"Yes ","ADDRESS":"3353 W. 13th Street","CITY":"CHICAGO","STATE":"IL","ZIP":60623,"PHONE":"(312) 747-3725","WEBSITE":"https:\/\/www.chipublib.org\/locations\/25\/","LOCATION":"(41.864500759742604, -87.70968548933996)","Predicted_Month":null,"Predicted_Day":null,"Predicted_Year":null,"Predicted_Hour":null,"Predicted_Minute":null,"Predicted_Second":null,"Predicted_X":39.8371792477,"Predicted_Y":-75.4023725644},{"index":23,"NAME ":"Dunning","HOURS OF OPERATION":"M, W: 12PM-8PM; TU, TH: 10AM-6PM; F, SA: 9AM-5PM; SU: Closed","CYBERNAVIGATOR":"No","TEACHER IN THE LIBRARY":"Yes ","ADDRESS":"7455 W. Cornelia Avenue","CITY":"CHICAGO","STATE":"IL","ZIP":60634,"PHONE":"(312) 743-0480","WEBSITE":"https:\/\/www.chipublib.org\/locations\/26\/","LOCATION":"(41.943308, -87.817497)","Predicted_Month":null,"Predicted_Day":null,"Predicted_Year":null,"Predicted_Hour":null,"Predicted_Minute":null,"Predicted_Second":null,"Predicted_X":41.94305615,"Predicted_Y":-87.813917814},{"index":24,"NAME ":"Edgebrook","HOURS OF OPERATION":"M, W: 12PM-8PM; TU, TH: 10AM-6PM; F, SA: 9AM-5PM; SU: Closed","CYBERNAVIGATOR":"No","TEACHER IN THE LIBRARY":"Yes ","ADDRESS":"5331 W. Devon Avenue","CITY":"CHICAGO","STATE":"IL","ZIP":60646,"PHONE":"(312) 744-8313","WEBSITE":"https:\/\/www.chipublib.org\/locations\/27\/","LOCATION":"(41.9969708834685, -87.7620478920105)","Predicted_Month":null,"Predicted_Day":null,"Predicted_Year":null,"Predicted_Hour":null,"Predicted_Minute":null,"Predicted_Second":null,"Predicted_X":41.99705765,"Predicted_Y":-87.7618702784},{"index":25,"NAME ":"Edgewater","HOURS OF OPERATION":"M, W: 10AM-6PM;  TU, TH: 12PM-8PM; F, SA: 9AM-5PM; SU: Closed","CYBERNAVIGATOR":"Yes ","TEACHER IN THE LIBRARY":"Yes ","ADDRESS":"6000 N. Broadway Street","CITY":"CHICAGO","STATE":"IL","ZIP":60660,"PHONE":"(312) 744-0718","WEBSITE":"https:\/\/www.chipublib.org\/locations\/28\/","LOCATION":"(41.990996, -87.660757)","Predicted_Month":null,"Predicted_Day":null,"Predicted_Year":null,"Predicted_Hour":null,"Predicted_Minute":null,"Predicted_Second":null,"Predicted_X":41.0875539,"Predicted_Y":-81.5130862},{"index":26,"NAME ":"Gage Park","HOURS OF OPERATION":"M, W: 10AM-6PM;  TU, TH: 12PM-8PM; F, SA: 9AM-5PM; SU: Closed","CYBERNAVIGATOR":"No","TEACHER IN THE LIBRARY":"Yes ","ADDRESS":"2807 W. 55th Street","CITY":"CHICAGO","STATE":"IL","ZIP":60632,"PHONE":"(312) 747-0032","WEBSITE":"https:\/\/www.chipublib.org\/locations\/29\/","LOCATION":"(41.79369723271382, -87.69404645462895)","Predicted_Month":null,"Predicted_Day":null,"Predicted_Year":null,"Predicted_Hour":null,"Predicted_Minute":null,"Predicted_Second":null,"Predicted_X":41.7932495,"Predicted_Y":-87.7207149},{"index":27,"NAME ":"Galewood-Mont Clare","HOURS OF OPERATION":"M-TH: 10AM-6PM; F: 9AM-5PM; SA, SU: Closed","CYBERNAVIGATOR":"No","TEACHER IN THE LIBRARY":"Yes ","ADDRESS":"6871 W. Belden Avenue","CITY":"CHICAGO","STATE":"IL","ZIP":60707,"PHONE":"(312) 746-0165","WEBSITE":"https:\/\/www.chipublib.org\/locations\/30\/","LOCATION":"(41.921114724943386, -87.79724102070298)","Predicted_Month":null,"Predicted_Day":null,"Predicted_Year":null,"Predicted_Hour":null,"Predicted_Minute":null,"Predicted_Second":null,"Predicted_X":41.9212303626,"Predicted_Y":-87.7975038525},{"index":28,"NAME ":"Garfield Ridge","HOURS OF OPERATION":"M, W: 10AM-6PM;  TU, TH: 12PM-8PM; F, SA: 9AM-5PM; SU: Closed","CYBERNAVIGATOR":"No","TEACHER IN THE LIBRARY":"Yes ","ADDRESS":"6348 S. Archer Avenue","CITY":"CHICAGO","STATE":"IL","ZIP":60638,"PHONE":"(312) 747-6094","WEBSITE":"https:\/\/www.chipublib.org\/locations\/31\/","LOCATION":"(41.79298666078267, -87.78013325801972)","Predicted_Month":null,"Predicted_Day":null,"Predicted_Year":null,"Predicted_Hour":null,"Predicted_Minute":null,"Predicted_Second":null,"Predicted_X":41.8377402,"Predicted_Y":-87.66568},{"index":29,"NAME ":"Greater Grand Crossing","HOURS OF OPERATION":"M, W: 12PM-8PM; TU, TH: 10AM-6PM; F, SA: 9AM-5PM; SU: Closed","CYBERNAVIGATOR":"Yes","TEACHER IN THE LIBRARY":"Yes ","ADDRESS":"1000 East 73rd Street","CITY":"CHICAGO","STATE":"IL","ZIP":60619,"PHONE":"(312) 745-1608","WEBSITE":"https:\/\/www.chipublib.org\/locations\/32\/","LOCATION":"(41.7623, -87.6005)","Predicted_Month":null,"Predicted_Day":null,"Predicted_Year":null,"Predicted_Hour":null,"Predicted_Minute":null,"Predicted_Second":null,"Predicted_X":40.6280126077,"Predicted_Y":-73.9165882591},{"index":30,"NAME ":"Hall","HOURS OF OPERATION":"M, W: 10AM-6PM;  TU, TH: 12PM-8PM; F, SA: 9AM-5PM; SU: Closed","CYBERNAVIGATOR":"Yes","TEACHER IN THE LIBRARY":"Yes ","ADDRESS":"4801 S. Michigan Avenue","CITY":"CHICAGO","STATE":"IL","ZIP":60615,"PHONE":"(312) 747-2541","WEBSITE":"https:\/\/www.chipublib.org\/locations\/33\/","LOCATION":"(41.80743298280974, -87.62273981936815)","Predicted_Month":null,"Predicted_Day":null,"Predicted_Year":null,"Predicted_Hour":null,"Predicted_Minute":null,"Predicted_Second":null,"Predicted_X":39.2675846978,"Predicted_Y":-85.3856792684},{"index":31,"NAME ":"Harold Washington-HWLC","HOURS OF OPERATION":"M-TH: 9AM-9PM; F, SA: 9AM-5PM; SU: 1PM-5PM","CYBERNAVIGATOR":"Yes","TEACHER IN THE LIBRARY":"Yes ","ADDRESS":"400 S. State Street","CITY":"CHICAGO","STATE":"IL","ZIP":60605,"PHONE":"(312) 747-4300","WEBSITE":"https:\/\/www.chipublib.org\/locations\/34\/","LOCATION":"(41.87629985357702, -87.62819280116949)","Predicted_Month":null,"Predicted_Day":null,"Predicted_Year":null,"Predicted_Hour":null,"Predicted_Minute":null,"Predicted_Second":null,"Predicted_X":41.0501243994,"Predicted_Y":-73.5342868189},{"index":32,"NAME ":"Hegewisch","HOURS OF OPERATION":"M, W: 10AM-6PM;  TU, TH: 12PM-8PM; F, SA: 9AM-5PM; SU: Closed","CYBERNAVIGATOR":"No","TEACHER IN THE LIBRARY":"Yes ","ADDRESS":"3048 E. 130th Street","CITY":"CHICAGO","STATE":"IL","ZIP":60633,"PHONE":"(312) 747-0046","WEBSITE":"https:\/\/www.chipublib.org\/locations\/35\/","LOCATION":"(41.65917887033542, -87.54824132727411)","Predicted_Month":null,"Predicted_Day":null,"Predicted_Year":null,"Predicted_Hour":null,"Predicted_Minute":null,"Predicted_Second":null,"Predicted_X":41.659418,"Predicted_Y":-87.5487373528},{"index":33,"NAME ":"Humboldt Park","HOURS OF OPERATION":"M, W: 12PM-8PM; TU, TH: 10AM-6PM; F, SA: 9AM-5PM; SU: Closed","CYBERNAVIGATOR":"Yes","TEACHER IN THE LIBRARY":"Yes ","ADDRESS":"1605 N. Troy Street","CITY":"CHICAGO","STATE":"IL","ZIP":60647,"PHONE":"(312) 744-2244","WEBSITE":"https:\/\/www.chipublib.org\/locations\/36\/","LOCATION":"(41.910328, -87.705427)","Predicted_Month":null,"Predicted_Day":null,"Predicted_Year":null,"Predicted_Hour":null,"Predicted_Minute":null,"Predicted_Second":null,"Predicted_X":41.9105152,"Predicted_Y":-87.7053025038},{"index":34,"NAME ":"Independence","HOURS OF OPERATION":"M, W: 10AM-6PM;  TU, TH: 12PM-8PM; F, SA: 9AM-5PM; SU: Closed","CYBERNAVIGATOR":"No","TEACHER IN THE LIBRARY":"Yes ","ADDRESS":"3548 W. Irving Park Road","CITY":"CHICAGO","STATE":"IL","ZIP":60618,"PHONE":"(312) 744-0900","WEBSITE":"https:\/\/www.chipublib.org\/locations\/37\/","LOCATION":"(41.953903720729926, -87.71694255042644)","Predicted_Month":null,"Predicted_Day":null,"Predicted_Year":null,"Predicted_Hour":null,"Predicted_Minute":null,"Predicted_Second":null,"Predicted_X":41.9546499,"Predicted_Y":-87.6447055},{"index":35,"NAME ":"Jefferson Park","HOURS OF OPERATION":"M, W: 10AM-6PM;  TU, TH: 12PM-8PM; F, SA: 9AM-5PM; SU: Closed","CYBERNAVIGATOR":"No","TEACHER IN THE LIBRARY":"Yes ","ADDRESS":"5363 W. Lawrence Avenue","CITY":"CHICAGO","STATE":"IL","ZIP":60630,"PHONE":"(312) 744-1998","WEBSITE":"https:\/\/www.chipublib.org\/locations\/38\/","LOCATION":"(41.96759739182978, -87.76155426232721)","Predicted_Month":null,"Predicted_Day":null,"Predicted_Year":null,"Predicted_Hour":null,"Predicted_Minute":null,"Predicted_Second":null,"Predicted_X":41.9680774,"Predicted_Y":-87.7433906},{"index":36,"NAME ":"Jeffery Manor","HOURS OF OPERATION":"M, W: 10AM-6PM;  TU, TH: 12PM-8PM; F, SA: 9AM-5PM; SU: Closed","CYBERNAVIGATOR":"Yes","TEACHER IN THE LIBRARY":"Yes ","ADDRESS":"2401 E. 100th Street","CITY":"CHICAGO","STATE":"IL","ZIP":60617,"PHONE":"(312) 747-6479","WEBSITE":"https:\/\/www.chipublib.org\/locations\/39\/","LOCATION":"(41.71326176288522, -87.56549206928669)","Predicted_Month":null,"Predicted_Day":null,"Predicted_Year":null,"Predicted_Hour":null,"Predicted_Minute":null,"Predicted_Second":null,"Predicted_X":40.3191252939,"Predicted_Y":-90.8886974796},{"index":37,"NAME ":"Kelly","HOURS OF OPERATION":"M, W: 10AM-6PM;  TU, TH: 12PM-8PM; F, SA: 9AM-5PM; SU: Closed","CYBERNAVIGATOR":"Yes","TEACHER IN THE LIBRARY":"Yes ","ADDRESS":"6151 S. Normal Boulevard","CITY":"CHICAGO","STATE":"IL","ZIP":60621,"PHONE":"(312) 747-8418","WEBSITE":"https:\/\/www.chipublib.org\/locations\/40\/","LOCATION":"(41.78217163315653, -87.63740786532117)","Predicted_Month":null,"Predicted_Day":null,"Predicted_Year":null,"Predicted_Hour":null,"Predicted_Minute":null,"Predicted_Second":null,"Predicted_X":41.7820008,"Predicted_Y":-87.637245735},{"index":38,"NAME ":"King","HOURS OF OPERATION":"M, W: 10AM-6PM;  TU, TH: 12PM-8PM; F, SA: 9AM-5PM; SU: Closed","CYBERNAVIGATOR":"Yes ","TEACHER IN THE LIBRARY":"Yes ","ADDRESS":"3436 S. King Drive","CITY":"CHICAGO","STATE":"IL","ZIP":60616,"PHONE":"(312) 747-7543","WEBSITE":"https:\/\/www.chipublib.org\/locations\/41\/","LOCATION":"(41.83180139956726, -87.6177606656296)","Predicted_Month":null,"Predicted_Day":null,"Predicted_Year":null,"Predicted_Hour":null,"Predicted_Minute":null,"Predicted_Second":null,"Predicted_X":41.7124991,"Predicted_Y":-87.6139216},{"index":39,"NAME ":"Legler","HOURS OF OPERATION":"M, W: 12PM-8PM; TU, TH: 10AM-6PM; F, SA: 9AM-5PM; SU: Closed","CYBERNAVIGATOR":"Yes","TEACHER IN THE LIBRARY":"Yes ","ADDRESS":"115 S. Pulaski Road","CITY":"CHICAGO","STATE":"IL","ZIP":60624,"PHONE":"(312) 746-7730","WEBSITE":"https:\/\/www.chipublib.org\/locations\/42\/","LOCATION":"(41.87933865849079, -87.72556034620074)","Predicted_Month":null,"Predicted_Day":null,"Predicted_Year":null,"Predicted_Hour":null,"Predicted_Minute":null,"Predicted_Second":null,"Predicted_X":41.879318,"Predicted_Y":-87.7252851689},{"index":40,"NAME ":"Lincoln Belmont","HOURS OF OPERATION":"M, W: 10AM-6PM;  TU, TH: 12PM-8PM; F, SA: 9AM-5PM; SU: Closed","CYBERNAVIGATOR":"Yes","TEACHER IN THE LIBRARY":"Yes ","ADDRESS":"1659 W. Melrose Street","CITY":"CHICAGO","STATE":"IL","ZIP":60657,"PHONE":"(312) 744-0166","WEBSITE":"https:\/\/www.chipublib.org\/locations\/43\/","LOCATION":"(41.94031359562259, -87.67075771281625)","Predicted_Month":null,"Predicted_Day":null,"Predicted_Year":null,"Predicted_Hour":null,"Predicted_Minute":null,"Predicted_Second":null,"Predicted_X":41.94032415,"Predicted_Y":-87.6707807},{"index":41,"NAME ":"Lincoln Park","HOURS OF OPERATION":"M, W: 10AM-6PM;  TU, TH: 12PM-8PM; F, SA: 9AM-5PM; SU: Closed","CYBERNAVIGATOR":"No","TEACHER IN THE LIBRARY":"Yes ","ADDRESS":"1150 W. Fullerton Avenue","CITY":"CHICAGO","STATE":"IL","ZIP":60614,"PHONE":"(312) 744-1926","WEBSITE":"https:\/\/www.chipublib.org\/locations\/44\/","LOCATION":"(41.925591694002954, -87.6581132450843)","Predicted_Month":null,"Predicted_Day":null,"Predicted_Year":null,"Predicted_Hour":null,"Predicted_Minute":null,"Predicted_Second":null,"Predicted_X":41.9253870543,"Predicted_Y":-87.6575907455},{"index":42,"NAME ":"Little Village","HOURS OF OPERATION":"M, W: 10AM-6PM;  TU, TH: 12PM-8PM; F, SA: 9AM-5PM; SU: Closed","CYBERNAVIGATOR":"Yes","TEACHER IN THE LIBRARY":"Yes ","ADDRESS":"2311 S. Kedzie Avenue","CITY":"CHICAGO","STATE":"IL","ZIP":60623,"PHONE":"(312) 745-1862","WEBSITE":"https:\/\/www.chipublib.org\/locations\/45\/","LOCATION":"(41.8495331, -87.7051215)","Predicted_Month":null,"Predicted_Day":null,"Predicted_Year":null,"Predicted_Hour":null,"Predicted_Minute":null,"Predicted_Second":null,"Predicted_X":41.8297439,"Predicted_Y":-87.7046181},{"index":43,"NAME ":"Logan Square","HOURS OF OPERATION":"M, W: 10AM-6PM;  TU, TH: 12PM-8PM; F, SA: 9AM-5PM; SU: Closed","CYBERNAVIGATOR":"Yes","TEACHER IN THE LIBRARY":"Yes ","ADDRESS":"3030 W. Fullerton Avenue","CITY":"CHICAGO","STATE":"IL","ZIP":60647,"PHONE":"(312) 744-5295","WEBSITE":"https:\/\/www.chipublib.org\/locations\/46\/","LOCATION":"(41.92505210078537, -87.70339410925955)","Predicted_Month":null,"Predicted_Day":null,"Predicted_Year":null,"Predicted_Hour":null,"Predicted_Minute":null,"Predicted_Second":null,"Predicted_X":41.9249911,"Predicted_Y":-87.6807732},{"index":44,"NAME ":"Lozano","HOURS OF OPERATION":"M, W: 10AM-6PM;  TU, TH: 12PM-8PM; F, SA: 9AM-5PM; SU: Closed","CYBERNAVIGATOR":"Yes","TEACHER IN THE LIBRARY":"Yes ","ADDRESS":"1805 S. Loomis Street","CITY":"CHICAGO","STATE":"IL","ZIP":60608,"PHONE":"(312) 746-4329","WEBSITE":"https:\/\/www.chipublib.org\/locations\/47\/","LOCATION":"(41.85752200960524, -87.6609371162563)","Predicted_Month":null,"Predicted_Day":null,"Predicted_Year":null,"Predicted_Hour":null,"Predicted_Minute":null,"Predicted_Second":null,"Predicted_X":41.857552,"Predicted_Y":-87.6609345982},{"index":45,"NAME ":"Manning","HOURS OF OPERATION":"M, W: 12PM-8PM; TU, TH: 10AM-6PM; F, SA: 9AM-5PM; SU: Closed","CYBERNAVIGATOR":"Yes","TEACHER IN THE LIBRARY":"Yes ","ADDRESS":"6 S. Hoyne Avenue","CITY":"CHICAGO","STATE":"IL","ZIP":60612,"PHONE":"(312) 746-6800","WEBSITE":"https:\/\/www.chipublib.org\/locations\/48\/","LOCATION":"(41.88118570415187, -87.67914211111776)","Predicted_Month":null,"Predicted_Day":null,"Predicted_Year":null,"Predicted_Hour":null,"Predicted_Minute":null,"Predicted_Second":null,"Predicted_X":41.8810057,"Predicted_Y":-87.6795648715},{"index":46,"NAME ":"Mayfair","HOURS OF OPERATION":"M, W: 12PM-8PM; TU, TH: 10AM-6PM; F, SA: 9AM-5PM; SU: Closed","CYBERNAVIGATOR":"No","TEACHER IN THE LIBRARY":"Yes ","ADDRESS":"4400 W. Lawrence Avenue","CITY":"CHICAGO","STATE":"IL","ZIP":60630,"PHONE":"(312) 744-1254","WEBSITE":"https:\/\/www.chipublib.org\/locations\/49\/","LOCATION":"(41.968354456496165, -87.7381618989123)","Predicted_Month":null,"Predicted_Day":null,"Predicted_Year":null,"Predicted_Hour":null,"Predicted_Minute":null,"Predicted_Second":null,"Predicted_X":41.96834825,"Predicted_Y":-87.7381955804},{"index":47,"NAME ":"McKinley Park","HOURS OF OPERATION":"M, W: 12PM-8PM; TU, TH: 10AM-6PM; F, SA: 9AM-5PM; SU: Closed","CYBERNAVIGATOR":"No","TEACHER IN THE LIBRARY":"Yes ","ADDRESS":"1915 W. 35th Street","CITY":"CHICAGO","STATE":"IL","ZIP":60609,"PHONE":"(312) 747-6082","WEBSITE":"https:\/\/www.chipublib.org\/locations\/50\/","LOCATION":"(41.830447500170855, -87.67339165430255)","Predicted_Month":null,"Predicted_Day":null,"Predicted_Year":null,"Predicted_Hour":null,"Predicted_Minute":null,"Predicted_Second":null,"Predicted_X":42.0886571429,"Predicted_Y":-80.1116548571},{"index":48,"NAME ":"Merlo","HOURS OF OPERATION":"M, W: 12PM-8PM; TU, TH: 10AM-6PM; F, SA: 9AM-5PM; SU: Closed","CYBERNAVIGATOR":"No","TEACHER IN THE LIBRARY":"Yes ","ADDRESS":"644 W. Belmont Avenue","CITY":"CHICAGO","STATE":"IL","ZIP":60657,"PHONE":"(312) 744-1139","WEBSITE":"https:\/\/www.chipublib.org\/locations\/51\/","LOCATION":"(41.940084208613214, -87.64614322696454)","Predicted_Month":null,"Predicted_Day":null,"Predicted_Year":null,"Predicted_Hour":null,"Predicted_Minute":null,"Predicted_Second":null,"Predicted_X":40.8397421316,"Predicted_Y":-96.7300183947},{"index":49,"NAME ":"Mount Greenwood","HOURS OF OPERATION":"M, W: 10AM-6PM;  TU, TH: 12PM-8PM; F, SA: 9AM-5PM; SU: Closed","CYBERNAVIGATOR":"No","TEACHER IN THE LIBRARY":"Yes ","ADDRESS":"11010 S. Kedzie Avenue","CITY":"CHICAGO","STATE":"IL","ZIP":60655,"PHONE":"(312) 747-2805","WEBSITE":"https:\/\/www.chipublib.org\/locations\/52\/","LOCATION":"(41.69291909858246, -87.70103788554279)","Predicted_Month":null,"Predicted_Day":null,"Predicted_Year":null,"Predicted_Hour":null,"Predicted_Minute":null,"Predicted_Second":null,"Predicted_X":41.8297439,"Predicted_Y":-87.7046181},{"index":50,"NAME ":"Near North","HOURS OF OPERATION":"M, W: 12PM-8PM; TU, TH: 10AM-6PM; F, SA: 9AM-5PM; SU: Closed","CYBERNAVIGATOR":"Yes","TEACHER IN THE LIBRARY":"Yes ","ADDRESS":"310 W. Division Street","CITY":"CHICAGO","STATE":"IL","ZIP":60610,"PHONE":"(312) 744-0991","WEBSITE":"https:\/\/www.chipublib.org\/locations\/53\/","LOCATION":"(41.90386938756309, -87.63648979790898)","Predicted_Month":null,"Predicted_Day":null,"Predicted_Year":null,"Predicted_Hour":null,"Predicted_Minute":null,"Predicted_Second":null,"Predicted_X":36.2020749571,"Predicted_Y":-86.5236548001},{"index":51,"NAME ":"North Austin","HOURS OF OPERATION":"M, W: 12PM-8PM; TU, TH: 10AM-6PM; F, SA: 9AM-5PM; SU: Closed","CYBERNAVIGATOR":"Yes","TEACHER IN THE LIBRARY":"Yes ","ADDRESS":"5724 W. North Avenue","CITY":"CHICAGO","STATE":"IL","ZIP":60639,"PHONE":"(312) 746-4233","WEBSITE":"https:\/\/www.chipublib.org\/locations\/54\/","LOCATION":"(41.90942919798428, -87.76879898888265)","Predicted_Month":null,"Predicted_Day":null,"Predicted_Year":null,"Predicted_Hour":null,"Predicted_Minute":null,"Predicted_Second":null,"Predicted_X":41.9111788,"Predicted_Y":-87.6322658},{"index":52,"NAME ":"North Pulaski","HOURS OF OPERATION":"M, W: 10AM-6PM;  TU, TH: 12PM-8PM; F, SA: 9AM-5PM; SU: Closed","CYBERNAVIGATOR":"No","TEACHER IN THE LIBRARY":"Yes ","ADDRESS":"4300 W. North Avenue","CITY":"CHICAGO","STATE":"IL","ZIP":60639,"PHONE":"(312) 744-9573","WEBSITE":"https:\/\/www.chipublib.org\/locations\/55\/","LOCATION":"(41.91004241611636, -87.73392609215429)","Predicted_Month":null,"Predicted_Day":null,"Predicted_Year":null,"Predicted_Hour":null,"Predicted_Minute":null,"Predicted_Second":null,"Predicted_X":41.9111788,"Predicted_Y":-87.6322658},{"index":53,"NAME ":"Northtown","HOURS OF OPERATION":"M, W: 10AM-6PM;  TU, TH: 12PM-8PM; F, SA: 9AM-5PM; SU: Closed","CYBERNAVIGATOR":"No","TEACHER IN THE LIBRARY":"Yes ","ADDRESS":"6435 N. California Avenue","CITY":"CHICAGO","STATE":"IL","ZIP":60645,"PHONE":"(312) 744-2292","WEBSITE":"https:\/\/www.chipublib.org\/locations\/56\/","LOCATION":"(41.99833902904292, -87.6996500514452)","Predicted_Month":null,"Predicted_Day":null,"Predicted_Year":null,"Predicted_Hour":null,"Predicted_Minute":null,"Predicted_Second":null,"Predicted_X":37.4464383,"Predicted_Y":-122.1277221},{"index":54,"NAME ":"Oriole Park","HOURS OF OPERATION":"M, W: 12PM-8PM; TU, TH: 10AM-6PM; F, SA: 9AM-5PM; SU: Closed","CYBERNAVIGATOR":"Yes","TEACHER IN THE LIBRARY":"Yes ","ADDRESS":"7454 W. Balmoral Avenue","CITY":"CHICAGO","STATE":"IL","ZIP":60656,"PHONE":"(312) 744-1965","WEBSITE":"https:\/\/www.chipublib.org\/locations\/57\/","LOCATION":"(41.977961140156296, -87.8132091093451)","Predicted_Month":null,"Predicted_Day":null,"Predicted_Year":null,"Predicted_Hour":null,"Predicted_Minute":null,"Predicted_Second":null,"Predicted_X":41.97828715,"Predicted_Y":-87.813858689},{"index":55,"NAME ":"Portage-Cragin","HOURS OF OPERATION":"M, W: 12PM-8PM; TU, TH: 10AM-6PM; F, SA: 9AM-5PM; SU: Closed","CYBERNAVIGATOR":"Yes","TEACHER IN THE LIBRARY":"Yes ","ADDRESS":"5108 W. Belmont Avenue","CITY":"CHICAGO","STATE":"IL","ZIP":60641,"PHONE":"(312) 744-0152","WEBSITE":"https:\/\/www.chipublib.org\/locations\/58\/","LOCATION":"(41.93877675039972, -87.75449293765163)","Predicted_Month":null,"Predicted_Day":null,"Predicted_Year":null,"Predicted_Hour":null,"Predicted_Minute":null,"Predicted_Second":null,"Predicted_X":33.5485003971,"Predicted_Y":-112.1701069564},{"index":56,"NAME ":"Pullman","HOURS OF OPERATION":"M, W: 10AM-6PM;  TU, TH: 12PM-8PM; F, SA: 9AM-5PM; SU: Closed","CYBERNAVIGATOR":"Yes","TEACHER IN THE LIBRARY":"Yes ","ADDRESS":"11001 S. Indiana Avenue","CITY":"CHICAGO","STATE":"IL","ZIP":60628,"PHONE":"(312) 747-2033","WEBSITE":"https:\/\/www.chipublib.org\/locations\/59\/","LOCATION":"(41.69440640901795, -87.61826066226358)","Predicted_Month":null,"Predicted_Day":null,"Predicted_Year":null,"Predicted_Hour":null,"Predicted_Minute":null,"Predicted_Second":null,"Predicted_X":40.475937,"Predicted_Y":-86.139014},{"index":57,"NAME ":"Roden","HOURS OF OPERATION":"M, W: 10AM-6PM;  TU, TH: 12PM-8PM; F, SA: 9AM-5PM; SU: Closed","CYBERNAVIGATOR":"No","TEACHER IN THE LIBRARY":"Yes ","ADDRESS":"6083 N. Northwest Highway","CITY":"CHICAGO","STATE":"IL","ZIP":60631,"PHONE":"(312) 744-1478","WEBSITE":"https:\/\/www.chipublib.org\/locations\/60\/","LOCATION":"(41.99191752494232, -87.79830189864583)","Predicted_Month":null,"Predicted_Day":null,"Predicted_Year":null,"Predicted_Hour":null,"Predicted_Minute":null,"Predicted_Second":null,"Predicted_X":41.99212165,"Predicted_Y":-87.7980199528},{"index":58,"NAME ":"Rogers Park","HOURS OF OPERATION":"M, W: 12PM-8PM; TU, TH: 10AM-6PM; F, SA: 9AM-5PM; SU: Closed","CYBERNAVIGATOR":"Yes","TEACHER IN THE LIBRARY":"Yes ","ADDRESS":"6907 N. Clark Street","CITY":"CHICAGO","STATE":"IL","ZIP":60626,"PHONE":"(312) 744-0156","WEBSITE":"https:\/\/www.chipublib.org\/locations\/61\/","LOCATION":"(42.00670763656976, -87.67340767268539)","Predicted_Month":null,"Predicted_Day":null,"Predicted_Year":null,"Predicted_Hour":null,"Predicted_Minute":null,"Predicted_Second":null,"Predicted_X":41.9123766,"Predicted_Y":-87.632375},{"index":59,"NAME ":"Roosevelt","HOURS OF OPERATION":"M, W: 12PM-8PM; TU, TH: 10AM-6PM; F, SA: 9AM-5PM; SU: Closed","CYBERNAVIGATOR":"Yes","TEACHER IN THE LIBRARY":"Yes ","ADDRESS":"1101 W. Taylor Street","CITY":"CHICAGO","STATE":"IL","ZIP":60607,"PHONE":"(312) 746-5656","WEBSITE":"https:\/\/www.chipublib.org\/locations\/62\/","LOCATION":"(41.86927614852819, -87.65447998408592)","Predicted_Month":null,"Predicted_Day":null,"Predicted_Year":null,"Predicted_Hour":null,"Predicted_Minute":null,"Predicted_Second":null,"Predicted_X":33.65206,"Predicted_Y":-96.628192},{"index":60,"NAME ":"Scottsdale","HOURS OF OPERATION":"M, W: 10AM-6PM;  TU, TH: 12PM-8PM; F, SA: 9AM-5PM; SU: Closed","CYBERNAVIGATOR":"No","TEACHER IN THE LIBRARY":"Yes ","ADDRESS":"4101 W. 79th Street","CITY":"CHICAGO","STATE":"IL","ZIP":60652,"PHONE":"(312) 747-0193","WEBSITE":"https:\/\/www.chipublib.org\/locations\/63\/","LOCATION":"(41.749361683410754, -87.72439557570442)","Predicted_Month":null,"Predicted_Day":null,"Predicted_Year":null,"Predicted_Hour":null,"Predicted_Minute":null,"Predicted_Second":null,"Predicted_X":39.896781235,"Predicted_Y":-86.2326830287},{"index":61,"NAME ":"Sherman Park","HOURS OF OPERATION":"M, W: 12PM-8PM; TU, TH: 10AM-6PM; F, SA: 9AM-5PM; SU: Closed","CYBERNAVIGATOR":"Yes","TEACHER IN THE LIBRARY":"Yes ","ADDRESS":"5440 S. Racine Avenue","CITY":"CHICAGO","STATE":"IL","ZIP":60609,"PHONE":"(312) 747-0477","WEBSITE":"https:\/\/www.chipublib.org\/locations\/64\/","LOCATION":"(41.795279421214886, -87.65492071930115)","Predicted_Month":null,"Predicted_Day":null,"Predicted_Year":null,"Predicted_Hour":null,"Predicted_Minute":null,"Predicted_Second":null,"Predicted_X":42.9459278837,"Predicted_Y":-88.1581961871},{"index":62,"NAME ":"South Chicago","HOURS OF OPERATION":"M, W: 12PM-8PM; TU, TH: 10AM-6PM; F, SA: 9AM-5PM; SU: Closed","CYBERNAVIGATOR":"Yes","TEACHER IN THE LIBRARY":"Yes ","ADDRESS":"9055 S. Houston Avenue","CITY":"CHICAGO","STATE":"IL","ZIP":60617,"PHONE":"(312) 747-8065","WEBSITE":"https:\/\/www.chipublib.org\/locations\/65\/","LOCATION":"(41.73057483460938, -87.54980694003919)","Predicted_Month":null,"Predicted_Day":null,"Predicted_Year":null,"Predicted_Hour":null,"Predicted_Minute":null,"Predicted_Second":null,"Predicted_X":36.1483531,"Predicted_Y":-95.9982863},{"index":63,"NAME ":"South Shore","HOURS OF OPERATION":"M, W: 10AM-6PM;  TU, TH: 12PM-8PM; F, SA: 9AM-5PM; SU: Closed","CYBERNAVIGATOR":"Yes","TEACHER IN THE LIBRARY":"Yes ","ADDRESS":"2505 E. 73rd Street","CITY":"CHICAGO","STATE":"IL","ZIP":60649,"PHONE":"(312) 747-5281","WEBSITE":"https:\/\/www.chipublib.org\/locations\/66\/","LOCATION":"(41.76155535585864, -87.56208363879564)","Predicted_Month":null,"Predicted_Day":null,"Predicted_Year":null,"Predicted_Hour":null,"Predicted_Minute":null,"Predicted_Second":null,"Predicted_X":41.4885373265,"Predicted_Y":-81.6376248367},{"index":64,"NAME ":"Sulzer Regional","HOURS OF OPERATION":"M-TH: 9AM-9PM; F, SA: 9AM-5PM; SU: 1PM-5PM","CYBERNAVIGATOR":"Yes","TEACHER IN THE LIBRARY":"Yes ","ADDRESS":"4455 N. Lincoln Avenue","CITY":"CHICAGO","STATE":"IL","ZIP":60625,"PHONE":"(312) 744-7616","WEBSITE":"https:\/\/www.chipublib.org\/locations\/67\/","LOCATION":"(41.96240358108169, -87.68441684946531)","Predicted_Month":null,"Predicted_Day":null,"Predicted_Year":null,"Predicted_Hour":null,"Predicted_Minute":null,"Predicted_Second":null,"Predicted_X":40.4504457,"Predicted_Y":-80.0194842},{"index":65,"NAME ":"Thurgood Marshall","HOURS OF OPERATION":"M, W: 12PM-8PM; TU, TH: 10AM-6PM; F, SA: 9AM-5PM; SU: Closed","CYBERNAVIGATOR":"Yes","TEACHER IN THE LIBRARY":"Yes ","ADDRESS":"7506 S. Racine Avenue","CITY":"CHICAGO","STATE":"IL","ZIP":60620,"PHONE":"(312) 747-5927","WEBSITE":"https:\/\/www.chipublib.org\/locations\/68\/","LOCATION":"(41.757801751628755, -87.65398155309862)","Predicted_Month":null,"Predicted_Day":null,"Predicted_Year":null,"Predicted_Hour":null,"Predicted_Minute":null,"Predicted_Second":null,"Predicted_X":41.8561291,"Predicted_Y":-87.6563781},{"index":66,"NAME ":"Toman","HOURS OF OPERATION":"M, W: 12PM-8PM; TU, TH: 10AM-6PM; F, SA: 9AM-5PM; SU: Closed","CYBERNAVIGATOR":"Yes","TEACHER IN THE LIBRARY":"Yes ","ADDRESS":"2708 S. Pulaski Road","CITY":"CHICAGO","STATE":"IL","ZIP":60623,"PHONE":"(312) 745-1660","WEBSITE":"https:\/\/www.chipublib.org\/locations\/69\/","LOCATION":"(41.84205367070128, -87.72496884474246)","Predicted_Month":null,"Predicted_Day":null,"Predicted_Year":null,"Predicted_Hour":null,"Predicted_Minute":null,"Predicted_Second":null,"Predicted_X":41.82377,"Predicted_Y":-87.7240569},{"index":67,"NAME ":"Uptown","HOURS OF OPERATION":"M, W: 10AM-6PM;  TU, TH: 12PM-8PM; F, SA: 9AM-5PM; SU: Closed","CYBERNAVIGATOR":"Yes","TEACHER IN THE LIBRARY":"Yes ","ADDRESS":"929 W. Buena Avenue","CITY":"CHICAGO","STATE":"IL","ZIP":60613,"PHONE":"(312) 744-8400","WEBSITE":"https:\/\/www.chipublib.org\/locations\/70\/","LOCATION":"(41.958445207514295, -87.65351012268938)","Predicted_Month":null,"Predicted_Day":null,"Predicted_Year":null,"Predicted_Hour":null,"Predicted_Minute":null,"Predicted_Second":null,"Predicted_X":41.9581874,"Predicted_Y":-87.6541990512},{"index":68,"NAME ":"Vodak-East Side","HOURS OF OPERATION":"M, W: 12PM-8PM; TU, TH: 10AM-6PM; F, SA: 9AM-5PM; SU: Closed","CYBERNAVIGATOR":"Yes","TEACHER IN THE LIBRARY":"Yes ","ADDRESS":"3710 E. 106th Street","CITY":"CHICAGO","STATE":"IL","ZIP":60617,"PHONE":"(312) 747-5500","WEBSITE":"https:\/\/www.chipublib.org\/locations\/71\/","LOCATION":"(41.70302747819179, -87.53350318470449)","Predicted_Month":null,"Predicted_Day":null,"Predicted_Year":null,"Predicted_Hour":null,"Predicted_Minute":null,"Predicted_Second":null,"Predicted_X":41.4584102222,"Predicted_Y":-81.6107851111},{"index":69,"NAME ":"Walker","HOURS OF OPERATION":"M, W: 10AM-6PM;  TU, TH: 12PM-8PM; F, SA: 9AM-5PM; SU: Closed","CYBERNAVIGATOR":"No","TEACHER IN THE LIBRARY":"Yes ","ADDRESS":"11071 S. Hoyne Avenue","CITY":"CHICAGO","STATE":"IL","ZIP":60643,"PHONE":"(312) 747-1920","WEBSITE":"https:\/\/www.chipublib.org\/locations\/72\/","LOCATION":"(41.69244169242589, -87.67413286555718)","Predicted_Month":null,"Predicted_Day":null,"Predicted_Year":null,"Predicted_Hour":null,"Predicted_Minute":null,"Predicted_Second":null,"Predicted_X":41.69217065,"Predicted_Y":-87.6737372396},{"index":70,"NAME ":"Water Works","HOURS OF OPERATION":"M-TH: 9AM-7PM; F, SA: 9AM-5PM; SU: 1PM-5PM","CYBERNAVIGATOR":"No","TEACHER IN THE LIBRARY":"Yes ","ADDRESS":"163 E. Pearson Street","CITY":"CHICAGO","STATE":"IL","ZIP":60611,"PHONE":"(312) 742-8811","WEBSITE":"https:\/\/www.chipublib.org\/locations\/73\/","LOCATION":"(41.89758435399726, -87.62314877110073)","Predicted_Month":null,"Predicted_Day":null,"Predicted_Year":null,"Predicted_Hour":null,"Predicted_Minute":null,"Predicted_Second":null,"Predicted_X":41.8975199909,"Predicted_Y":-87.6227216496},{"index":71,"NAME ":"West Belmont","HOURS OF OPERATION":"M, W: 10AM-6PM;  TU, TH: 12PM-8PM; F, SA: 9AM-5PM; SU: Closed","CYBERNAVIGATOR":"Yes","TEACHER IN THE LIBRARY":"Yes ","ADDRESS":"3104 N. Narragansett Avenue","CITY":"CHICAGO","STATE":"IL","ZIP":60634,"PHONE":"(312) 746-5142","WEBSITE":"https:\/\/www.chipublib.org\/locations\/74\/","LOCATION":"(41.93666211869315, -87.78589145006396)","Predicted_Month":null,"Predicted_Day":null,"Predicted_Year":null,"Predicted_Hour":null,"Predicted_Minute":null,"Predicted_Second":null,"Predicted_X":41.9367444,"Predicted_Y":-87.78620766},{"index":72,"NAME ":"West Chicago Avenue","HOURS OF OPERATION":"M, W: 10AM-6PM;  TU, TH: 12PM-8PM; F, SA: 9AM-5PM; SU: Closed","CYBERNAVIGATOR":"Yes","TEACHER IN THE LIBRARY":"Yes ","ADDRESS":"4856 W. Chicago Avenue","CITY":"CHICAGO","STATE":"IL","ZIP":60651,"PHONE":"(312) 743-0260","WEBSITE":"https:\/\/www.chipublib.org\/locations\/75\/","LOCATION":"(41.895046508790834, -87.74732954000841)","Predicted_Month":null,"Predicted_Day":null,"Predicted_Year":null,"Predicted_Hour":null,"Predicted_Minute":null,"Predicted_Second":null,"Predicted_X":41.8953775,"Predicted_Y":-87.7257931},{"index":73,"NAME ":"West Englewood","HOURS OF OPERATION":"M, W: 12PM-8PM; TU, TH: 10AM-6PM; F, SA: 9AM-5PM; SU: Closed","CYBERNAVIGATOR":"Yes","TEACHER IN THE LIBRARY":"Yes ","ADDRESS":"1745 W. 63rd Street","CITY":"CHICAGO","STATE":"IL","ZIP":60636,"PHONE":"(312) 747-3481","WEBSITE":"https:\/\/www.chipublib.org\/locations\/76\/","LOCATION":"(41.779334358813195, -87.66812159090755)","Predicted_Month":null,"Predicted_Day":null,"Predicted_Year":null,"Predicted_Hour":null,"Predicted_Minute":null,"Predicted_Second":null,"Predicted_X":39.869951604,"Predicted_Y":-86.1910457718},{"index":74,"NAME ":"West Lawn","HOURS OF OPERATION":"M, W: 12PM-8PM; TU, TH: 10AM-6PM; F, SA: 9AM-5PM; SU: Closed","CYBERNAVIGATOR":"No","TEACHER IN THE LIBRARY":"Yes ","ADDRESS":"4020 W. 63rd Street","CITY":"CHICAGO","STATE":"IL","ZIP":60629,"PHONE":"(312) 747-7381","WEBSITE":"https:\/\/www.chipublib.org\/locations\/77\/","LOCATION":"(41.778662219559784, -87.7235385705056)","Predicted_Month":null,"Predicted_Day":null,"Predicted_Year":null,"Predicted_Hour":null,"Predicted_Minute":null,"Predicted_Second":null,"Predicted_X":41.4469555072,"Predicted_Y":-81.7310541708},{"index":75,"NAME ":"West Pullman","HOURS OF OPERATION":"M, W: 12PM-8PM; TU, TH: 10AM-6PM; F, SA: 9AM-5PM; SU: Closed","CYBERNAVIGATOR":"No","TEACHER IN THE LIBRARY":"Yes ","ADDRESS":"830 W. 119th Street","CITY":"CHICAGO","STATE":"IL","ZIP":60643,"PHONE":"(312) 747-1425","WEBSITE":"https:\/\/www.chipublib.org\/locations\/78\/","LOCATION":"(41.67785087178982, -87.64299968326193)","Predicted_Month":null,"Predicted_Day":null,"Predicted_Year":null,"Predicted_Hour":null,"Predicted_Minute":null,"Predicted_Second":null,"Predicted_X":40.8069537,"Predicted_Y":-73.9553818},{"index":76,"NAME ":"West Town","HOURS OF OPERATION":"M, W: 10AM-6PM;  TU, TH: 12PM-8PM; F, SA: 9AM-5PM; SU: Closed","CYBERNAVIGATOR":"No","TEACHER IN THE LIBRARY":"Yes ","ADDRESS":"1625 W. Chicago Avenue","CITY":"CHICAGO","STATE":"IL","ZIP":60622,"PHONE":"(312) 743-0450","WEBSITE":"https:\/\/www.chipublib.org\/locations\/79\/","LOCATION":"(41.895752189070784, -87.6682665907951)","Predicted_Month":null,"Predicted_Day":null,"Predicted_Year":null,"Predicted_Hour":null,"Predicted_Minute":null,"Predicted_Second":null,"Predicted_X":41.89578075,"Predicted_Y":-87.6683663924},{"index":77,"NAME ":"Whitney M. Young, Jr.","HOURS OF OPERATION":"M, W: 10AM-6PM;  TU, TH: 12PM-8PM; F, SA: 9AM-5PM; SU: Closed","CYBERNAVIGATOR":"Yes ","TEACHER IN THE LIBRARY":"Yes ","ADDRESS":"7901 S. King Drive","CITY":"CHICAGO","STATE":"IL","ZIP":60619,"PHONE":"(312) 747-0039","WEBSITE":"https:\/\/www.chipublib.org\/locations\/80\/","LOCATION":"(41.75106360973631, -87.61495065361933)","Predicted_Month":null,"Predicted_Day":null,"Predicted_Year":null,"Predicted_Hour":null,"Predicted_Minute":null,"Predicted_Second":null,"Predicted_X":41.7124991,"Predicted_Y":-87.6139216},{"index":78,"NAME ":"Woodson Regional","HOURS OF OPERATION":"M-TH: 9AM-9PM; F, SA: 9AM-5PM; SU: 1PM-5PM","CYBERNAVIGATOR":"Yes","TEACHER IN THE LIBRARY":"Yes ","ADDRESS":"9525 S. Halsted Street","CITY":"CHICAGO","STATE":"IL","ZIP":60628,"PHONE":"(312) 747-6900","WEBSITE":"https:\/\/www.chipublib.org\/locations\/81\/","LOCATION":"(41.72093481286736, -87.64309395216542)","Predicted_Month":null,"Predicted_Day":null,"Predicted_Year":null,"Predicted_Hour":null,"Predicted_Minute":null,"Predicted_Second":null,"Predicted_X":41.6965804,"Predicted_Y":-87.6424453},{"index":79,"NAME ":"Wrightwood-Ashburn","HOURS OF OPERATION":"M, W: 12PM-8PM; TU, TH: 10AM-6PM; F, SA: 9AM-5PM; SU: Closed","CYBERNAVIGATOR":"No","TEACHER IN THE LIBRARY":"Yes ","ADDRESS":"8530 S. Kedzie Avenue","CITY":"CHICAGO","STATE":"IL","ZIP":60652,"PHONE":"(312) 747-2696","WEBSITE":"https:\/\/www.chipublib.org\/locations\/82\/","LOCATION":"(41.73832399791064, -87.70213010561923)","Predicted_Month":null,"Predicted_Day":null,"Predicted_Year":null,"Predicted_Hour":null,"Predicted_Minute":null,"Predicted_Second":null,"Predicted_X":41.8297439,"Predicted_Y":-87.7046181}]}